{"type":"FeatureCollection","features":[{"type":"Feature","geometry":null,"properties":{"nome":"Praça Eugenio Augusto Fock","bairro":"PIRABEIRABA","categoria":"","endereço":"R. Armandos Lopes Pereira"}},{"type":"Feature","geometry":{"type":"Point","coordinates":[-48.801615,-26.32797]},"properties":{"nome":"AL Loteamento Rosa","bairro":"ULYSSES GUIMARAES","categoria":"Área de Lazer","endereço":""}},{"type":"Feature","geometry":{"type":"Point","coordinates":[-48.904963,-26.331572]},"properties":{"nome":"AL Associacao","bairro":"MORRO DO MEIO","categoria":"Área de Lazer","endereço":"Rua da Associação"}},{"type":"Feature","geometry":{"type":"Point","coordinates":[-48.815579,-26.346271]},"properties":{"nome":"AL Joao Costa","bairro":"JOAO COSTA","categoria":"Área de Lazer","endereço":"Rua Francisco Alves"}},{"type":"Feature","geometry":{"type":"Point","coordinates":[-48.829942,-26.317377]},"properties":{"nome":"Parque da Cidade Setor GUANABARA","bairro":"GUANABARA","categoria":"Parque","endereço":"R. Graciosa, 1111"}},{"type":"Feature","geometry":{"type":"Point","coordinates":[-48.774844,-26.291363]},"properties":{"nome":"Parque Porta do Mar","bairro":"ESPINHEIROS","categoria":"Parque","endereço":"R. Pref. Baltazar Buschle"}},{"type":"Feature","geometry":{"type":"Point","coordinates":[-48.83177,-26.207126]},"properties":{"nome":"AL Jd. Paraiso II","bairro":"JARDIM PARAISO","categoria":"Área de Lazer","endereço":"Avenida Júpiter"}},{"type":"Feature","geometry":{"type":"Point","coordinates":[-48.874419,-26.334581]},"properties":{"nome":"AL Nova Brasilia","bairro":"NOVA BRASILIA","categoria":"Área de Lazer","endereço":"Rua Theodoro Oscar Bohn"}},{"type":"Feature","geometry":{"type":"Point","coordinates":[-48.807631,-26.345196]},"properties":{"nome":"AL Irineu Pereira (OP)","bairro":"JOAO COSTA","categoria":"Área de Lazer","endereço":"Rua Irineu Pereira / João Basílio Corrêa"}},{"type":"Feature","geometry":{"type":"Point","coordinates":[-48.837491,-26.241387]},"properties":{"nome":"AL Jd. Kelly","bairro":"JARDIM SOFIA","categoria":"Área de Lazer","endereço":"Rua Abelardo José Avelino"}},{"type":"Feature","geometry":{"type":"Point","coordinates":[-48.825918,-26.339956]},"properties":{"nome":"AL Campina Grande","bairro":"PETROPOLIS","categoria":"Área de Lazer","endereço":"Rua Campina Grande"}},{"type":"Feature","geometry":{"type":"Point","coordinates":[-48.851365,-26.328361]},"properties":{"nome":"AL FLORESTA II","bairro":"FLORESTA","categoria":"Área de Lazer","endereço":"Rua Carlos Pahl"}},{"type":"Feature","geometry":{"type":"Point","coordinates":[-48.780613,-26.281611]},"properties":{"nome":"AL Francisco Rodrigues (OP)","bairro":"ESPINHEIROS","categoria":"Área de Lazer","endereço":"Rua Francisco Rodrigues Miranda/José Silveira Lopes"}},{"type":"Feature","geometry":{"type":"Point","coordinates":[-48.802556,-26.315039]},"properties":{"nome":"AL Pista de bicicros","bairro":"ADHEMAR GARCIA","categoria":"Área de Lazer","endereço":"Rua Vicente A. Pereira / Manoel Ribas"}},{"type":"Feature","geometry":{"type":"Point","coordinates":[-48.824139,-26.379473]},"properties":{"nome":"AL ITINGA","bairro":"ITINGA","categoria":"Área de Lazer","endereço":"Rua Valdomiro José Borges"}},{"type":"Feature","geometry":{"type":"Point","coordinates":[-48.843726,-26.245319]},"properties":{"nome":"AL Jardim Sofia (abandonada)","bairro":"JARDIM SOFIA","categoria":"Área de Lazer","endereço":"Rua Levino Tanner"}},{"type":"Feature","geometry":{"type":"Point","coordinates":[-48.831649,-26.31689]},"properties":{"nome":"Parque da Cidade Setor BUCAREIN","bairro":"BUCAREIN","categoria":"Parque","endereço":"R. Inácio Bastos"}},{"type":"Feature","geometry":{"type":"Point","coordinates":[-48.878209,-26.312146]},"properties":{"nome":"AL Real Sociedade","bairro":"SAO MARCOS","categoria":"Área de Lazer","endereço":"Rua Karl W. Noack"}},{"type":"Feature","geometry":{"type":"Point","coordinates":[-48.910071,-26.293337]},"properties":{"nome":"AL Parque Quinze","bairro":"VILA NOVA","categoria":"Área de Lazer","endereço":"Rua Marcio Luckow / João Carlos G. Oliveira"}},{"type":"Feature","geometry":{"type":"Point","coordinates":[-48.817714,-26.272557]},"properties":{"nome":"AL Sociedade Veteranos","bairro":"IRIRIU","categoria":"Área de Lazer","endereço":"Rua João Reinhold"}},{"type":"Feature","geometry":{"type":"Point","coordinates":[-48.805111,-26.266688]},"properties":{"nome":"AL Estadio Melchior Beninca (OP)","bairro":"JARDIM IRIRIU","categoria":"Área de Lazer","endereço":"Rua Damásio Alves Machado / Altamira"}},{"type":"Feature","geometry":{"type":"Point","coordinates":[-48.816511,-26.242473]},"properties":{"nome":"AL Santa Luzia","bairro":"AVENTUREIRO","categoria":"Área de Lazer","endereço":"Rua Santa Luzia"}},{"type":"Feature","geometry":{"type":"Point","coordinates":[-48.855762,-26.337785]},"properties":{"nome":"AL Copacabana","bairro":"FLORESTA","categoria":"Área de Lazer","endereço":"Rua Marcelino Zanella"}},{"type":"Feature","geometry":{"type":"Point","coordinates":[-48.773971,-26.282751]},"properties":{"nome":"AL Francisco E Bernardo","bairro":"ESPINHEIROS","categoria":"Área de Lazer","endereço":"Rua Francisco Eduardo Bernardo"}},{"type":"Feature","geometry":{"type":"Point","coordinates":[-48.827748,-26.315656]},"properties":{"nome":"Parque da Cidade Setor SAMBAQUI","bairro":"GUANABARA","categoria":"Parque","endereço":"R. Graciosa, 1255"}},{"type":"Feature","geometry":{"type":"Point","coordinates":[-48.85672,-26.298852]},"properties":{"nome":"Parque das Águas","bairro":"AMÉRICA","categoria":"Parque","endereço":"R. XV de Novembro"}},{"type":"Feature","geometry":{"type":"Point","coordinates":[-48.794299,-26.278651]},"properties":{"nome":"AL Vila Paranaense","bairro":"COMASA","categoria":"Área de Lazer","endereço":"Rua Abelardo Barbosa"}},{"type":"Feature","geometry":{"type":"Point","coordinates":[-48.837718,-26.320342]},"properties":{"nome":"AL BUCAREIN","bairro":"BUCAREIN","categoria":"Área de Lazer","endereço":"Rua Calixto Zattar"}},{"type":"Feature","geometry":{"type":"Point","coordinates":[-48.806291,-26.237568]},"properties":{"nome":"AL Jd. Francine","bairro":"AVENTUREIRO","categoria":"Área de Lazer","endereço":"Rua Jacupiranga / Mauro Bley do Nacimento"}},{"type":"Feature","geometry":{"type":"Point","coordinates":[-48.807553,-26.364127]},"properties":{"nome":"AL PARQUE GUARANI","bairro":"PARQUE GUARANI","categoria":"Área de Lazer","endereço":"Rua Mato Grosso do Sul"}},{"type":"Feature","geometry":{"type":"Point","coordinates":[-48.818748,-26.272461]},"properties":{"nome":"AL IRIRIU (OP)","bairro":"IRIRIU","categoria":"Área de Lazer","endereço":"Rua João Reinhold / Serv.  Francisco Soares da Silva"}},{"type":"Feature","geometry":{"type":"Point","coordinates":[-48.899086,-26.283616]},"properties":{"nome":"AL Joao Miers","bairro":"VILA NOVA","categoria":"Área de Lazer","endereço":"Rua Santa Genoveva / João Miers"}},{"type":"Feature","geometry":{"type":"Point","coordinates":[-48.786617,-26.34756]},"properties":{"nome":"AL Estevao de Matos (OP)","bairro":"PARANAGUAMIRIM","categoria":"Área de Lazer","endereço":"Rua José Reiser Filho"}},{"type":"Feature","geometry":{"type":"Point","coordinates":[-48.824811,-26.376472]},"properties":{"nome":"AL ITINGA (OP)","bairro":"ITINGA","categoria":"Área de Lazer","endereço":"Rua Carlos Emílio Alexandre Swatz"}},{"type":"Feature","geometry":{"type":"Point","coordinates":[-48.802366,-26.328771]},"properties":{"nome":"AL Loteamento Rosa","bairro":"ULYSSES GUIMARAES","categoria":"Área de Lazer","endereço":"Rua José Clara de Oliveira / Antenor Douat Baptista"}},{"type":"Feature","geometry":{"type":"Point","coordinates":[-48.842476,-26.367727]},"properties":{"nome":"AL PROFIPO","bairro":"PROFIPO","categoria":"Área de Lazer","endereço":"Rua Laura Auler"}},{"type":"Feature","geometry":{"type":"Point","coordinates":[-48.828968,-26.326279]},"properties":{"nome":"AL GUANABARA","bairro":"GUANABARA","categoria":"Área de Lazer","endereço":"Rua Enguerrand de Albuquerque Neves"}},{"type":"Feature","geometry":{"type":"Point","coordinates":[-48.890615,-26.269398]},"properties":{"nome":"AL Parque Cattoni (OP)","bairro":"COSTA E SILVA","categoria":"Área de Lazer","endereço":"Rua Inambú / Expedicionário Reinold Millnitz"}},{"type":"Feature","geometry":{"type":"Point","coordinates":[-48.818761,-26.319626]},"properties":{"nome":"AL Associação de Moradores do Bairro Fátima","bairro":"FATIMA","categoria":"Área de Lazer","endereço":""}},{"type":"Feature","geometry":{"type":"Point","coordinates":[-48.907802,-26.282665]},"properties":{"nome":"AL Jd. Florencio","bairro":"VILA NOVA","categoria":"Área de Lazer","endereço":"Rua Helmuth Teichert"}},{"type":"Feature","geometry":{"type":"Point","coordinates":[-48.810963,-26.345178]},"properties":{"nome":"AL Santa Izabel","bairro":"JOAO COSTA","categoria":"Área de Lazer","endereço":"Rua Santa Izabel"}},{"type":"Feature","geometry":{"type":"Point","coordinates":[-48.794306,-26.306501]},"properties":{"nome":"Parque Caieras","bairro":"ADHEMAR GARCIA","categoria":"Parque","endereço":"R. Valdomiro Rosa,1636"}},{"type":"Feature","geometry":{"type":"Point","coordinates":[-48.843167,-26.284576]},"properties":{"nome":"Praça Alidio Pohl","bairro":"SAGUAÇU","categoria":"Praça","endereço":"Av. Hermann Augusto Lepper, 1-197"}},{"type":"Feature","geometry":{"type":"Point","coordinates":[-48.785936,-26.2801]},"properties":{"nome":"AL Moinho dos Ventos","bairro":"ESPINHEIROS","categoria":"Área de Lazer","endereço":"Rua Sebastião S. de Borba"}},{"type":"Feature","geometry":{"type":"Point","coordinates":[-48.881168,-26.26847]},"properties":{"nome":"AL Pavao","bairro":"COSTA E SILVA","categoria":"Área de Lazer","endereço":"Rua Pavão"}},{"type":"Feature","geometry":{"type":"Point","coordinates":[-48.843274,-26.301148]},"properties":{"nome":"Ginásio Abel Schulz","bairro":"CENTRO","categoria":"Ginasio","endereço":"R. Rio Branco, 54"}},{"type":"Feature","geometry":{"type":"Point","coordinates":[-48.85389,-26.337415]},"properties":{"nome":"AL FLORESTA","bairro":"FLORESTA","categoria":"Área de Lazer","endereço":"Rua Tuffi Dippe / Rua Colômbia"}},{"type":"Feature","geometry":{"type":"Point","coordinates":[-48.819036,-26.217747]},"properties":{"nome":"AL Jd. Paraiso (OP)","bairro":"JARDIM PARAISO","categoria":"Área de Lazer","endereço":"Avenida Júpiter"}},{"type":"Feature","geometry":{"type":"Point","coordinates":[-48.883153,-26.28875]},"properties":{"nome":"AL Parque Versailles","bairro":"GLORIA","categoria":"Área de Lazer","endereço":"Rua Rudolfo Schmalz"}},{"type":"Feature","geometry":{"type":"Point","coordinates":[-48.919375,-26.283304]},"properties":{"nome":"AL Catharina Baumer (OP)","bairro":"VILA NOVA","categoria":"Área de Lazer","endereço":"Rua Catharina Baumer"}},{"type":"Feature","geometry":{"type":"Point","coordinates":[-48.83541,-26.295323]},"properties":{"nome":"Parque Zoobotânico","bairro":"SAGUAÇU","categoria":"Parque","endereço":"R. Pastor Guilherme Ráu, 462"}},{"type":"Feature","geometry":{"type":"Point","coordinates":[-48.770899,-26.345773]},"properties":{"nome":"AL Jd. Edilene (OP)","bairro":"PARANAGUAMIRIM","categoria":"Área de Lazer","endereço":"Rua Antônio Leite/Rua PARANAGUAMIRIM"}},{"type":"Feature","geometry":{"type":"Point","coordinates":[-48.804814,-26.32082]},"properties":{"nome":"AL Adhemar Garcia","bairro":"ADHEMAR GARCIA","categoria":"Área de Lazer","endereço":"Avenida Alwino Hansen / Eng. Eugênio Junqueira Neto"}},{"type":"Feature","geometry":{"type":"Point","coordinates":[-48.902536,-26.285428]},"properties":{"nome":"AL Cj. Irineu Bornhausen","bairro":"VILA NOVA","categoria":"Área de Lazer","endereço":"Rua São Bras / Alwin Pasold"}},{"type":"Feature","geometry":{"type":"Point","coordinates":[-48.867522,-26.331366]},"properties":{"nome":"AL Posto de saude","bairro":"NOVA BRASILIA","categoria":"Área de Lazer","endereço":"Rua BOM RETIRO / Geraldo Drefhal"}},{"type":"Feature","geometry":{"type":"Point","coordinates":[-48.908432,-26.327827]},"properties":{"nome":"AL MORRO DO MEIO","bairro":"MORRO DO MEIO","categoria":"Área de Lazer","endereço":"Estrada Lagoinha"}},{"type":"Feature","geometry":{"type":"Point","coordinates":[-48.832155,-26.348873]},"properties":{"nome":"AL Monsenhor Scarzello","bairro":"PETROPOLIS","categoria":"Área de Lazer","endereço":"Avenida Paulo Schroeder"}},{"type":"Feature","geometry":{"type":"Point","coordinates":[-48.819416,-26.263921]},"properties":{"nome":"AL Tuiuti","bairro":"IRIRIU","categoria":"Área de Lazer","endereço":"Rua Tuiuti"}},{"type":"Feature","geometry":{"type":"Point","coordinates":[-48.831911,-26.30334]},"properties":{"nome":"Ginásio Mario Timm","bairro":"BOA VISTA","categoria":"Ginasio","endereço":"Rua José Elias Giuliari, 316"}},{"type":"Feature","geometry":{"type":"Point","coordinates":[-48.831177,-26.30516]},"properties":{"nome":"Ginásio Municipal de Ginástica Rítmica Perácio Bernardo","bairro":"BOA VISTA","categoria":"Ginasio","endereço":"Rua José Elias Giuliari"}},{"type":"Feature","geometry":{"type":"Point","coordinates":[-48.803608,-26.28484]},"properties":{"nome":"AL Avencal (OP)","bairro":"COMASA","categoria":"Área de Lazer","endereço":"Rua Avencal"}},{"type":"Feature","geometry":{"type":"Point","coordinates":[-48.791656,-26.351662]},"properties":{"nome":"AL PARANAGUAMIRIM","bairro":"PARANAGUAMIRIM","categoria":"Área de Lazer","endereço":"Rua dos Pedreiros/"}},{"type":"Feature","geometry":{"type":"Point","coordinates":[-48.804257,-26.321917]},"properties":{"nome":"Parque São Francisco","bairro":"ADHEMAR GARCIA","categoria":"Parque","endereço":"R. Benício Felipe da Silva, 45"}},{"type":"Feature","geometry":{"type":"Point","coordinates":[-48.882148,-26.282278]},"properties":{"nome":"AL Willy Schossland","bairro":"COSTA E SILVA","categoria":"Área de Lazer","endereço":"Rua Ver. Curt Alvino Monich"}},{"type":"Feature","geometry":{"type":"Point","coordinates":[-48.83445,-26.356745]},"properties":{"nome":"AL Jd. Andressa (OP)","bairro":"BOEHMERWALD","categoria":"Área de Lazer","endereço":"Rua Frederico Félix Carsten"}},{"type":"Feature","geometry":{"type":"Point","coordinates":[-48.79804,-26.274927]},"properties":{"nome":"AL Novos Horizontes","bairro":"COMASA","categoria":"Área de Lazer","endereço":"Rua Novos Horizontes"}},{"type":"Feature","geometry":{"type":"Point","coordinates":[-48.858747,-26.293752]},"properties":{"nome":"Ginásio Ivan Rodrigues","bairro":"AMÉRICA","categoria":"Ginasio","endereço":"R. Max Colin, 1640"}},{"type":"Feature","geometry":{"type":"Point","coordinates":[-48.798011,-26.335479]},"properties":{"nome":"AL JARIVATUBA (OP)","bairro":"JARIVATUBA","categoria":"Área de Lazer","endereço":"Rua Luiz Silveira da Costa"}},{"type":"Feature","geometry":{"type":"Point","coordinates":[-48.805321,-26.259169]},"properties":{"nome":"AL Portinho","bairro":"JARDIM IRIRIU","categoria":"Área de Lazer","endereço":"Rua Rocha Pombo"}},{"type":"Feature","geometry":{"type":"Point","coordinates":[-48.810872,-26.3588]},"properties":{"nome":"Praça Parque Guarani","bairro":"PARQUE GUARANI","categoria":"Praça","endereço":"R. dos Baobás"}},{"type":"Feature","geometry":{"type":"Point","coordinates":[-48.845932,-26.356928]},"properties":{"nome":"Praça Marcos Antonio Braga","bairro":"SANTA CATARINA","categoria":"Praça","endereço":"Rua Waldemiro José Borges/Rua Santa Catarina"}},{"type":"Feature","geometry":{"type":"Point","coordinates":[-48.842912,-26.301574]},"properties":{"nome":"Praça Dario Sales","bairro":"CENTRO","categoria":"Praça","endereço":"R. Nove de Março"}},{"type":"Feature","geometry":{"type":"Point","coordinates":[-48.846801,-26.302138]},"properties":{"nome":"Praça Lauro Muller","bairro":"CENTRO","categoria":"Praça","endereço":"R. Cmte. Eugênio Leper, 19"}},{"type":"Feature","geometry":{"type":"Point","coordinates":[-48.840629,-26.305566]},"properties":{"nome":"Praça Hercilio Luz","bairro":"CENTRO","categoria":"Praça","endereço":"Av. Dr. Paulo Medeiros, S/N"}},{"type":"Feature","geometry":{"type":"Point","coordinates":[-48.853566,-26.284174]},"properties":{"nome":"Praça dos Pioneiros","bairro":"GLÓRIA","categoria":"Praça","endereço":"R. Benjamin Constant"}},{"type":"Feature","geometry":{"type":"Point","coordinates":[-48.850114,-26.272419]},"properties":{"nome":"Praça Geraldo Wetzel","bairro":"BOM RETIRO","categoria":"Praça","endereço":"R. General Câmara"}},{"type":"Feature","geometry":{"type":"Point","coordinates":[-48.845926,-26.273451]},"properties":{"nome":"Praça Otavio Carlos de Oliveira","bairro":"SAGUAÇU","categoria":"Praça","endereço":"R. Tenente Antonio João"}},{"type":"Feature","geometry":{"type":"Point","coordinates":[-48.839565,-26.266707]},"properties":{"nome":"Praça Tancredo Neves","bairro":"BOM RETIRO","categoria":"Praça","endereço":"R. Piratuba"}},{"type":"Feature","geometry":{"type":"Point","coordinates":[-48.827066,-26.273775]},"properties":{"nome":"Praça Padre Valente Simeoni","bairro":"IRIRIU","categoria":"Praça","endereço":"R. Marques de Pombal, 344"}},{"type":"Feature","geometry":{"type":"Point","coordinates":[-48.819152,-26.263578]},"properties":{"nome":"Praça Mae Peregrina","bairro":"IRIRIU","categoria":"Praça","endereço":"R. Tuiuti"}},{"type":"Feature","geometry":{"type":"Point","coordinates":[-48.82326,-26.258225]},"properties":{"nome":"Praça Mario Valentim Muraro","bairro":"AVENTUREIRO","categoria":"Praça","endereço":"R. Belem do Pará"}},{"type":"Feature","geometry":{"type":"Point","coordinates":[-48.876546,-26.272862]},"properties":{"nome":"Praça Do Bosque","bairro":"COSTA E SILVA","categoria":"Praça","endereço":"R. Inambú"}},{"type":"Feature","geometry":{"type":"Point","coordinates":[-48.868948,-26.268756]},"properties":{"nome":"Praça Antonio Rosa","bairro":"COSTA E SILVA","categoria":"Praça","endereço":"Avenida Vice Prefeito Luiz Carlos Garcia"}},{"type":"Feature","geometry":{"type":"Point","coordinates":[-48.869088,-26.296192]},"properties":{"nome":"Praça Felipe Baumer","bairro":"GLÓRIA","categoria":"Praça","endereço":"R. XV de Novembro"}},{"type":"Feature","geometry":{"type":"Point","coordinates":[-48.861457,-26.307187]},"properties":{"nome":"Praça Edificio Dulce","bairro":"ATIRADORES","categoria":"Praça","endereço":"R. Desembargador Nelson Nunes/ Euzébio de Queiroz"}},{"type":"Feature","geometry":{"type":"Point","coordinates":[-48.845265,-26.321746]},"properties":{"nome":"Praça Monte Castelo","bairro":"ANITA GARIBALDI","categoria":"Praça","endereço":"Avenida Getúlio Vargas"}},{"type":"Feature","geometry":{"type":"Point","coordinates":[-48.873652,-26.320127]},"properties":{"nome":"Praça Otavio Redivo \"O nono\"","bairro":"SÃO MARCOS","categoria":"Praça","endereço":"R. Guaporé/Pedro Rauch"}},{"type":"Feature","geometry":{"type":"Point","coordinates":[-48.846876,-26.335966]},"properties":{"nome":"Praça Tiradentes","bairro":"FLORESTA","categoria":"Praça","endereço":"R. Santa Catarina"}},{"type":"Feature","geometry":{"type":"Point","coordinates":[-48.835844,-26.332896]},"properties":{"nome":"Praça Vereador Joao Amaral","bairro":"ITAUM","categoria":"Praça","endereço":"R. Monsegnhor Gercino/ Inácio de Oliveira"}},{"type":"Feature","geometry":{"type":"Point","coordinates":[-48.831334,-26.329811]},"properties":{"nome":"Praça Antonio Barbi","bairro":"GUANABARA","categoria":"Praça","endereço":"R. Emilio Stock"}},{"type":"Feature","geometry":{"type":"Point","coordinates":[-48.837014,-26.323974]},"properties":{"nome":"Praça Almirante Barroso","bairro":"GUANABARA","categoria":"Praça","endereço":"R. Florianópolis/ Graciosa"}},{"type":"Feature","geometry":{"type":"Point","coordinates":[-48.817815,-26.327136]},"properties":{"nome":"Praça Padre Erico","bairro":"FÁTIMA","categoria":"Praça","endereço":"R. Fátima/ São Mateus"}},{"type":"Feature","geometry":{"type":"Point","coordinates":[-48.805884,-26.324064]},"properties":{"nome":"Praça da Paz","bairro":"ADHEMAR GARCIA","categoria":"Praça","endereço":"R. Wirmond da Costa"}},{"type":"Feature","geometry":{"type":"Point","coordinates":[-48.831979,-26.306773]},"properties":{"nome":"Praça Albano Schmidt","bairro":"BOA VISTA","categoria":"Praça","endereço":"R. Helmut Fallgatter"}},{"type":"Feature","geometry":{"type":"Point","coordinates":[-48.828283,-26.311807]},"properties":{"nome":"Praça Calceteiro/ Mario Metz","bairro":"BOA VISTA","categoria":"Praça","endereço":"R. Ministro Luiz Galotti"}},{"type":"Feature","geometry":{"type":"Point","coordinates":[-48.812624,-26.281755]},"properties":{"nome":"Praça Cecy Maia","bairro":"BOA VISTA","categoria":"Praça","endereço":"R. Xavier Arp"}},{"type":"Feature","geometry":{"type":"Point","coordinates":[-48.807641,-26.275326]},"properties":{"nome":"Praça David da Graca","bairro":"COMASA","categoria":"Praça","endereço":"Rua Ponte Serrada/Alferes Schmidt"}},{"type":"Feature","geometry":{"type":"Point","coordinates":[-48.800989,-26.21817]},"properties":{"nome":"Praça Nerivaldo Medeiros","bairro":"VILA CUBATÃO","categoria":"Praça","endereço":"R. Professor Rosnel Neri Burlikowski (Prnb-1)"}},{"type":"Feature","geometry":{"type":"Point","coordinates":[-48.809221,-26.267201]},"properties":{"nome":"Praça Sao Joao Batista","bairro":"JARDIM IRIRIU","categoria":"Praça","endereço":"R. José Antônio Sales"}},{"type":"Feature","geometry":{"type":"Point","coordinates":[-48.866677,-26.329979]},"properties":{"nome":"Praça Olga Machado Ferreira (remanescente de lote)","bairro":"NOVA BRASÍLIA","categoria":"Praça","endereço":"R. Minas Gerais"}},{"type":"Feature","geometry":{"type":"Point","coordinates":[-48.909257,-26.206122]},"properties":{"nome":"Praça Caetano Evora da Silveira Junior","bairro":"PIRABEIRABA","categoria":"Praça","endereço":"R. Olavo Bilac / Pastor Domel"}},{"type":"Feature","geometry":{"type":"Point","coordinates":[-48.841653,-26.253639]},"properties":{"nome":"Praça Bom Retiro","bairro":"BOM RETIRO","categoria":"Praça","endereço":"Rua  Affonso Frederico Leopoldo Koentopp/Itajubá"}},{"type":"Feature","geometry":{"type":"Point","coordinates":[-48.866597,-26.3319]},"properties":{"nome":"Praça Joana D'arc","bairro":"NOVA BRASILIA","categoria":"Praça","endereço":"Rua Joana D'arc / Manoel Borges"}},{"type":"Feature","geometry":{"type":"Point","coordinates":[-48.814482,-26.256882]},"properties":{"nome":"Praça Antonio Reinert","bairro":"AVENTUREIRO","categoria":"Praça","endereço":"Avenida Vice-Prefeito Ivan Rodrigues"}},{"type":"Feature","geometry":{"type":"Point","coordinates":[-48.818747,-26.297511]},"properties":{"nome":"Praça Boa Vista","bairro":"BOA VISTA","categoria":"Praça","endereço":"Rua São Miguel / Rua São Vicente"}},{"type":"Feature","geometry":{"type":"Point","coordinates":[-48.799994,-26.244973]},"properties":{"nome":"Praça Jardim Franciele","bairro":"AVENTUREIRO","categoria":"Praça","endereço":"R. Carlos Roberto Vilpert"}},{"type":"Feature","geometry":{"type":"Point","coordinates":[-48.822351,-26.382136]},"properties":{"nome":"Praça Santa Gertrudes","bairro":"ITINGA","categoria":"Praça","endereço":"R. Santa Gertrudes"}},{"type":"Feature","geometry":{"type":"Point","coordinates":[-48.833783,-26.281993]},"properties":{"nome":"Praça  Vô Coxa","bairro":"SAGUAÇU","categoria":"Praça","endereço":"R. Capuchinhos, 232"}},{"type":"Feature","geometry":{"type":"Point","coordinates":[-48.900787,-26.295925]},"properties":{"nome":"Praça Joaquim Girardi","bairro":"VILA NOVA","categoria":"Praça","endereço":"R. Joaquim Girardi"}},{"type":"Feature","geometry":{"type":"Point","coordinates":[-48.766829,-26.225037]},"properties":{"nome":"Praça  Vigorelli","bairro":"VILA CUBATAO","categoria":"Praça","endereço":"Praia da Vigorelli"}},{"type":"Feature","geometry":{"type":"Point","coordinates":[-48.836435,-26.355177]},"properties":{"nome":"Praça Neriton Gladmir Rodrigues","bairro":"BOEHMERWALD","categoria":"Praça","endereço":"R. Cidade de Sobral"}}]}